{"labels":["Australia","Canada","Germany","United Kingdom","United States"],"scaler":{"mean":[23.70429571,38.66811879,-90.86254852],"scale":[21.30699123,8.85195895,31.88147475]},"coefficients":[[0.00608815,-16.10851075,14.67024311],[-0.09356933,1.93214837,-0.00112418],[0.21884071,2.67238765,6.32856246],[0.31957417,3.17778982,5.59630909],[-0.00616054,-0.0682264,-0.31564146]],"intercepts":[-123.57550035,-3.95915688,-18.41526371,-13.92527646,-0.11630464],"metadata":{"name":"UFO sighting country nearest-centroid classifier","source":"course UFO sightings CSV","testAccuracy":0.9447,"featureNames":["Duration seconds","Latitude","Longitude"],"sampleCount":25863,"countryProfiles":[{"label":"Australia","code":"AU","count":202,"share":0.0078,"centroid":{"seconds":15.0,"latitude":-32.6176,"longitude":143.7094},"range":{"latitude":[-37.8139,-27.471],"longitude":[115.8753,153.0243]}},{"label":"Canada","code":"CA","count":1266,"share":0.049,"centroid":{"seconds":15.0,"latitude":47.207,"longitude":-91.0192},"range":{"latitude":[43.25,53.35],"longitude":[-123.1333,-71.1583]}},{"label":"Germany","code":"DE","count":41,"share":0.0016,"centroid":{"seconds":15.0,"latitude":50.6303,"longitude":10.1528},"range":{"latitude":[49.1928,52.5167],"longitude":[7.4333,13.4]}},{"label":"United Kingdom","code":"GB","count":742,"share":0.0287,"centroid":{"seconds":20.0,"latitude":52.7338,"longitude":-1.6987},"range":{"latitude":[51.05,54.9881],"longitude":[-3.75,-0.0937]}},{"label":"United States","code":"US","count":23612,"share":0.913,"centroid":{"seconds":15.0,"latitude":38.3574,"longitude":-95.8383},"range":{"latitude":[30.6325,45.4944],"longitude":[-122.1419,-74.8]}}]}}
